{
  "1": { "name":"Emmaus House", "street":"127 How St", "city":"HAVERHILL", "state":" MA", "zip":1830, "phone":"(978) 241-3500", "lat":42.777073, "lng":-71.081184},
  "3": { "name":"Seacoast Interfaith Hospitality Network", "street":"6 Emery Ln", "city":"STRATHAM", "state":" NH", "zip":3885, "phone":"603-658-8448", "lat":43.01859, "lng":-70.91755},
  "4": { "name":"New Generation, Inc.", "street":"568 Portsmouth Ave", "city":"GREENLAND", "state":" NH", "zip":3840, "phone":"603-436-4989", "lat":43.036736, "lng":-70.837204},
  "6": { "name":"DAYBREAK SHELTER", "street":"19 Winter St", "city":"LAWRENCE", "state":" MA", "zip":1841, "phone":"978 975 4547", "lat":42.70526, "lng":-71.17131},
  "7": { "name":"LAZARUS HOUSE", "street":"48 Holly St", "city":"LAWRENCE", "state":" MA", "zip":1841, "phone":"978-689-8575", "lat":42.71344, "lng":-71.17411},
  "8": { "name":"WELLSPRING HOUSE", "street":"302 Essex Ave", "city":"GLOUCESTER", "state":" MA", "zip":1930, "phone":"978 281 3221", "lat":42.614788, "lng":-70.71005},
  "9": { "name":"NORTHEASTERN MASS ACTION INC.", "street":"370 Main St", "city":"GLOUCESTER", "state":" MA", "zip":1930, "phone":"978 283 4125", "lat":42.616863, "lng":-70.65289},
  "10": { "name":"TAKING CARE OF BUSINESS", "street":"64 Eastern Point Rd", "city":"GLOUCESTER", "state":" MA", "zip":1930, "phone":"978 281 3328", "lat":42.599457, "lng":-70.65525},
  "11": { "name":"INN BETWEEN", "street":"25 Holten St", "city":"PEABODY", "state":" MA", "zip":1960, "phone":"978 532 2372", "lat":42.52217, "lng":-70.923294},
  "12": { "name":"Lifebridge", "street":"56 Margin St", "city":"SALEM", "state":" MA", "zip":1970, "phone":"978-744-0500", "lat":42.518425, "lng":-70.896385},
  "14": { "name":"Under the Oak Day Shelter", "street":"180 E Merrimack St", "city":"LOWELL", "state":" MA", "zip":1852, "phone":"978~459~9631", "lat":42.64457, "lng":-71.302124},
  "15": { "name":"GREATER LOWELL EMERGENCY FAMILY SHELTER", "street":"167 Dutton St", "city":"LOWELL", "state":" MA", "zip":1852, "phone":"978 459 0551", "lat":42.64518, "lng":-71.313385},
  "16": { "name":"LOWELL TRANSITIONAL LIVING CENTER", "street":"189 Middlesex St", "city":"LOWELL", "state":" MA", "zip":1852, "phone":"978 458 9888", "lat":42.6409, "lng":-71.311935},
  "17": { "name":"HOUSE OF HOPE", "street":"812 Merrimack St", "city":"LOWELL", "state":" MA", "zip":1854, "phone":"978 458 2870", "lat":42.649963, "lng":-71.322556},
  "18": { "name":"LYNN SHELTER ASSOCIATION", "street":"100 Willow St", "city":"LYNN", "state":" MA", "zip":1901, "phone":"781 581 6600", "lat":42.46503, "lng":-70.9471},
  "19": { "name":"BRIDGEHOUSE", "street":"24 Baker St", "city":"LYNN", "state":" MA", "zip":1902, "phone":"781 593 3898", "lat":42.46451, "lng":-70.95769},
  "21": { "name":"STEPPING STONES", "street":"50 Newhall St", "city":"LYNN", "state":" MA", "zip":1902, "phone":"", "lat":42.461315, "lng":-70.9396},
  "22": { "name":"SPIN - Serving People In Need", "street":"248 S Common St", "city":"LYNN", "state":" MA", "zip":1905, "phone":"781 598 9417", "lat":42.461636, "lng":-70.96421},
  "23": { "name":"MASS. COALITION FOR THE HOMELESS", "street":"15 Bubier St", "city":"LYNN", "state":" MA", "zip":1901, "phone":"(781) 595-7570", "lat":42.457256, "lng":-70.94966},
  "24": { "name":"AMHERST EMERGENCY SHELTER", "street":"17 Seelye St", "city":"AMHERST", "state":" MA", "zip":1002, "phone":"413 253 5155", "lat":42.375637, "lng":-72.51578},
  "25": { "name":"Craig's Place Emergency Shelter", "street":"434 S Pleasant St", "city":"AMHERST", "state":" MA", "zip":1002, "phone":"413-437-0776", "lat":42.365463, "lng":-72.52043},
  "26": { "name":"Interfaith Cot Shelter", "street":"43 Center St", "city":"NORTHAMPTON", "state":" MA", "zip":1060, "phone":"(413) 586-6750", "lat":42.31947, "lng":-72.63279},
  "27": { "name":"Grove St Inn", "street":"91 Grove St", "city":"NORTHAMPTON", "state":" MA", "zip":1060, "phone":"(413) 586-6001", "lat":42.30795, "lng":-72.64689},
  "28": { "name":"MAIN STREET SHELTER", "street":"319 Main St", "city":"HOLYOKE", "state":" MA", "zip":1040, "phone":"413 534 2466", "lat":42.20031, "lng":-72.60672},
  "29": { "name":"Family Place Shelter Holyoke", "street":"288 Oak St", "city":"HOLYOKE", "state":" MA", "zip":1040, "phone":"(413) 536-2787", "lat":42.204014, "lng":-72.62005},
  "30": { "name":"Broderick House", "street":"56 Cabot St", "city":"HOLYOKE", "state":" MA", "zip":1040, "phone":"413-536-9109", "lat":42.19921, "lng":-72.605865},
  "31": { "name":"Loreto House (treatment facility)", "street":"51 Hamilton St", "city":"HOLYOKE", "state":" MA", "zip":1040, "phone":"413 533 5909", "lat":42.19808, "lng":-72.60687},
  "32": { "name":"Greenfield Family Inn Shelter", "street":"128 Federal St", "city":"GREENFIELD", "state":" MA", "zip":1301, "phone":"413 774 6382", "lat":42.592243, "lng":-72.59829},
  "33": { "name":"EMERGENCY SHELTER OF GREATER SPRINGFIELD - PROSPECT HOUSE", "street":"103 Prospect St", "city":"SPRINGFIELD", "state":" MA", "zip":1107, "phone":"413 737 5518", "lat":42.117336, "lng":-72.59696},
  "34": { "name":"PROSPECT STREET SHELTER", "street":"103 Prospect St", "city":"SPRINGFIELD", "state":" MA", "zip":1107, "phone":"413 737 5518", "lat":42.117336, "lng":-72.59696},
  "36": { "name":"JEFFERSON STREET SHELTER", "street":"95 Jefferson Ave", "city":"SPRINGFIELD", "state":" MA", "zip":1107, "phone":"413 736 2263", "lat":42.116467, "lng":-72.603226},
  "37": { "name":"Friends of the Homeless Shelter", "street":"769 Worthington St", "city":"SPRINGFIELD", "state":" MA", "zip":1105, "phone":"413-732-3069", "lat":42.110874, "lng":-72.5844},
  "38": { "name":"ORANGE HOMELESS SHELTER", "street":"88 E Main St", "city":"ORANGE", "state":" MA", "zip":1364, "phone":"978 544 8245", "lat":42.590805, "lng":-72.30539},
  "39": { "name":"Springfield Rescue Mission Emergency Shelter", "street":"148 Taylor St", "city":"SPRINGFIELD", "state":" MA", "zip":1103, "phone":"(413) 732-0808", "lat":42.10715, "lng":-72.59005},
  "40": { "name":"WESTERN MASS. MASS. DEPT. OF SOCIAL SERVICES Region I Western Mass.", "street":"1537 Main St", "city":"SPRINGFIELD", "state":" MA", "zip":1103, "phone":"413 452 3200", "lat":42.10339, "lng":-72.59219},
  "41": { "name":"SPRINGFIELD RESCUE MISSION", "street":"19 Bliss St", "city":"WEST SPRINGFIELD", "state":" MA", "zip":1089, "phone":"413-732-0808", "lat":42.105354, "lng":-72.615974},
  "42": { "name":"Residential Resource Center", "street":"170 Orange St", "city":"SPRINGFIELD", "state":" MA", "zip":1108, "phone":"413-301-7405", "lat":42.09219, "lng":-72.563194},
  "43": { "name":"SAMARITAN INN", "street":"7 Free St", "city":"WESTFIELD", "state":" MA", "zip":1085, "phone":"413-568-3122", "lat":42.120834, "lng":-72.74677},
  "51": { "name":"COMMUNITY TEAMWORK PAWTUCKET HOUSE", "street":"360 Pawtucket St", "city":"LOWELL", "state":" MA", "zip":1854, "phone":"978 452 5410", "lat":42.648273, "lng":-71.32875},
  "52": { "name":"MERRIMACK HOUSE", "street":"423 Pawtucket St", "city":"LOWELL", "state":" MA", "zip":1854, "phone":"978 937 2418", "lat":42.6475, "lng":-71.33074},
  "59": { "name":"MEDFORD FAMILY LIFE EDUCATION CENTER", "street":"2 Central Ave", "city":"MEDFORD", "state":" MA", "zip":2155, "phone":"781 391 9116", "lat":42.41935, "lng":-71.09862},
  "60": { "name":"Housing Families Inc.", "street":"350 Cross St", "city":"MALDEN", "state":" MA", "zip":2148, "phone":"781-322-9119", "lat":42.425217, "lng":-71.0552},
  "63": { "name":"Nashua Soup Kitchen & Shelter", "street":"2 Quincy St", "city":"NASHUA", "state":" NH", "zip":3060, "phone":"(603) 889-7770", "lat":42.760967, "lng":-71.461815},
  "64": { "name":"SOMERVILLE HOMELESS COALITION ADULT SHELTER", "street":"14 Chapel St", "city":"SOMERVILLE", "state":" MA", "zip":2144, "phone":"617-623-2546", "lat":42.39878, "lng":-71.120735},
  "65": { "name":"Nashua Rescue Mission", "street":"40 Chestnut St", "city":"NASHUA", "state":" NH", "zip":3060, "phone":"6038893421", "lat":42.758194, "lng":-71.46843},
  "66": { "name":"CROSS STREET FAMILY SHELTER", "street":"59 Cross St", "city":"SOMERVILLE", "state":" MA", "zip":2145, "phone":"617 776 6661", "lat":42.386105, "lng":-71.08759},
  "68": { "name":"Bristol Lodge Women's Shelter", "street":"205 Bacon St", "city":"WALTHAM", "state":" MA", "zip":2451, "phone":"781-894-1225", "lat":42.38317, "lng":-71.24169},
  "69": { "name":"Harvard Square Homeless Shelter", "street":"66 Winthrop St", "city":"CAMBRIDGE", "state":" MA", "zip":2138, "phone":"617 876 3256", "lat":42.37196, "lng":-71.12012},
  "70": { "name":"CAMBRIDGE YWCA EMERGENCY FAMILY SHELTER", "street":"3 Bigelow St", "city":"CAMBRIDGE", "state":" MA", "zip":2139, "phone":"617 491 6055", "lat":42.367268, "lng":-71.106094},
  "71": { "name":"CAMBRIDGE YWCA", "street":"7 Temple St", "city":"CAMBRIDGE", "state":" MA", "zip":2139, "phone":"617-491-6050", "lat":42.366077, "lng":-71.104614},
  "72": { "name":"Bristol Lodge Men's Shelter", "street":"27 Lexington St", "city":"WALTHAM", "state":" MA", "zip":2452, "phone":"781-893-0108", "lat":42.37727, "lng":-71.2357},
  "73": { "name":"Hildebrand Family Self-Help Center - Congregate Family Shelter", "street":"614 Massachusetts Ave", "city":"CAMBRIDGE", "state":" MA", "zip":2139, "phone":"617-491-5752", "lat":42.365044, "lng":-71.103165},
  "74": { "name":"CAMBRIDGE SHELTER (SHELTER INC.)", "street":"109 School St", "city":"CAMBRIDGE", "state":" MA", "zip":2139, "phone":"617 547 1885", "lat":42.36401, "lng":-71.09856},
  "75": { "name":"SHELTER INC", "street":"109 School St", "city":"CAMBRIDGE", "state":" MA", "zip":2139, "phone":"617 547 1885", "lat":42.36401, "lng":-71.09856},
  "76": { "name":"MULTI SERVICE CENTER FOR THE HOMELESS", "street":"19 Brookline St", "city":"CAMBRIDGE", "state":" MA", "zip":2139, "phone":"617 349 6340", "lat":42.363457, "lng":-71.10192},
  "77": { "name":"CAMBRIDGE SHELTER (SALVATION ARMY)", "street":"402 Massachusetts Ave", "city":"CAMBRIDGE", "state":" MA", "zip":2139, "phone":"617 547 3400", "lat":42.363483, "lng":-71.1005},
  "78": { "name":"Salvation Army Emergency Shelter", "street":"402 Massachusetts Ave", "city":"CAMBRIDGE", "state":" MA", "zip":2139, "phone":"(617) 547-3400", "lat":42.363483, "lng":-71.1005},
  "79": { "name":"Crossroads Family Shelter & Food Pantry", "street":"56 Havre St", "city":"EAST BOSTON", "state":" MA", "zip":2128, "phone":"617 567 5926", "lat":42.37122, "lng":-71.03993},
  "80": { "name":"Chardon Street Shelter for Women and Children", "street":"41 New Chardon St", "city":"BOSTON", "state":" MA", "zip":2114, "phone":"617-720-3611 ", "lat":42.362553, "lng":-71.06144},
  "81": { "name":"TEMPORARY HOME FOR WOMEN AND CHILDREN", "street":"41 New Chardon St", "city":"BOSTON", "state":" MA", "zip":2114, "phone":"617 720 3611", "lat":42.362553, "lng":-71.06144},
  "82": { "name":"CASPAR, Inc.", "street":"240 Albany St", "city":"CAMBRIDGE", "state":" MA", "zip":2139, "phone":"617-661-0600", "lat":42.35868, "lng":-71.100716},
  "84": { "name":"New England Center for Homeless Veterans", "street":"17 Court St", "city":"BOSTON", "state":" MA", "zip":2108, "phone":"617-371-1800", "lat":42.35896, "lng":-71.05819},
  "85": { "name":"CRITTENTON HASTINGS HOUSE", "street":"10 Perthshire Rd", "city":"BRIGHTON", "state":" MA", "zip":2135, "phone":"617 782 7600", "lat":42.353428, "lng":-71.165665},
  "88": { "name":"SAINT FRANCIS HOUSE DAY CENTER Essex Station", "street":"39 Boylston St", "city":"BOSTON", "state":" MA", "zip":2116, "phone":"617 542 4211", "lat":42.35233, "lng":-71.06383},
  "89": { "name":"FamilyAid Emergency Shelter", "street":"727 Atlantic Ave", "city":"BOSTON", "state":" MA", "zip":2111, "phone":"617-542-7286", "lat":42.350563, "lng":-71.05659},
  "90": { "name":"24 HOUR CHILD/AT RISK HOTLINE - C/O Dept. of Social Services", "street":"24 Farnsworth St", "city":"BOSTON", "state":" MA", "zip":2210, "phone":"800 792 5200", "lat":42.35109, "lng":-71.04874},
  "91": { "name":"MASS. DEPT. OF SOCIAL SERVICES - Metropolitan Boston", "street":"24 Farnsworth St", "city":"BOSTON", "state":" MA", "zip":2210, "phone":"617 748 2000", "lat":42.35109, "lng":-71.04874},
  "92": { "name":"MASS BAY CHAPTER AMERICAN RED CROSS", "street":"285 Columbus Ave", "city":"BOSTON", "state":" MA", "zip":2116, "phone":"1 800 564 1234", "lat":42.346783, "lng":-71.07412},
  "93": { "name":"CARDINAL MEDEIROS CENTER", "street":"25 Isabella St", "city":"BOSTON", "state":" MA", "zip":2116, "phone":"(617) 619-6960", "lat":42.348763, "lng":-71.069824},
  "94": { "name":"FAMILIES IN TRANSITION", "street":"316 Huntington Ave", "city":"BOSTON", "state":" MA", "zip":2115, "phone":"617 927 8290", "lat":42.340725, "lng":-71.08775},
  "95": { "name":"Boston Night Center Pine Street Inn", "street":"444 Harrison Ave", "city":"BOSTON", "state":" MA", "zip":2118, "phone":"617-482-4944", "lat":42.34302, "lng":-71.06493},
  "96": { "name":"METROPOLITAN BOSTON HOUSING PARTNERSHIP", "street":"569 Columbus Ave", "city":"BOSTON", "state":" MA", "zip":2118, "phone":"617 859 0400 ex", "lat":42.3409, "lng":-71.081474},
  "97": { "name":"The Women's Inn at Pine Street", "street":"363 Albany St", "city":"BOSTON", "state":" MA", "zip":2118, "phone":"617-482-4944", "lat":42.342365, "lng":-71.06283},
  "98": { "name":"WOMEN UNIT SHELTER", "street":"363 Albany St", "city":"BOSTON", "state":" MA", "zip":2118, "phone":"617 482 4944", "lat":42.342365, "lng":-71.06283},
  "99": { "name":"Sancta Maria House For Women", "street":"11 Waltham St", "city":"BOSTON", "state":" MA", "zip":2118, "phone":"617-423-4366", "lat":42.341183, "lng":-71.0682},
  "100": { "name":"HARBORLIGHT SALVATION ARMY SHELTER", "street":"407 Shawmut Ave", "city":"BOSTON", "state":" MA", "zip":2118, "phone":"617 536 7469", "lat":42.34039, "lng":-71.07348},
  "102": { "name":"Rosie's Place For Women", "street":"889 Harrison Ave", "city":"ROXBURY", "state":" MA", "zip":2118, "phone":"617-442-9322", "lat":42.333916, "lng":-71.076645},
  "103": { "name":"Woods Mullen Shelter and Services", "street":"784 Massachusetts Ave", "city":"BOSTON", "state":" MA", "zip":2118, "phone":"617-534-7100", "lat":42.33354, "lng":-71.073395},
  "104": { "name":"Shelter at 112 Southampton Street", "street":"112 Southampton St", "city":"BOSTON", "state":" MA", "zip":2118, "phone":"(617) 534-7100.", "lat":42.331936, "lng":-71.0692},
  "105": { "name":"ROXBURY FAMILY SHELTER - SALVATION ARMY FAMILY SHELTER", "street":"23 Vernon St", "city":"ROXBURY", "state":" MA", "zip":2119, "phone":"617 427 6700", "lat":42.33048, "lng":-71.08426},
  "106": { "name":"Urban Ministries Renewal House Domestice Violence Shelter", "street":"10 Putnam St", "city":"ROXBURY", "state":" MA", "zip":2119, "phone":"617-566-6881", "lat":42.329556, "lng":-71.089005},
  "107": { "name":"Long Island Shelter - Boston Public Health Commission", "street":"1010 Massachusetts Ave", "city":"BOSTON", "state":" MA", "zip":2118, "phone":"617-534-2526", "lat":42.32756, "lng":-71.06741},
  "108": { "name":"NAZARETH HOUSE", "street":"91 Regent St", "city":"ROXBURY", "state":" MA", "zip":2119, "phone":"617 541 0100", "lat":42.323334, "lng":-71.08763},
  "109": { "name":"Sojourner House Family Shelter", "street":"85 Rockland St", "city":"ROXBURY", "state":" MA", "zip":2119, "phone":"617.442.0590", "lat":42.322353, "lng":-71.0874},
  "110": { "name":"SOJOURNER HOUSE", "street":"85 Rockland St", "city":"ROXBURY", "state":" MA", "zip":2119, "phone":"617 442 0590", "lat":42.322353, "lng":-71.0874},
  "111": { "name":"Mary Eliza Mahoney House Family Shelter", "street":"41 Dimock St", "city":"ROXBURY", "state":" MA", "zip":2119, "phone":"617-442-8800 ext. 1005", "lat":42.3195, "lng":-71.096634},
  "112": { "name":"Battered Women's Emergency Shelter Elizabeth Stone House", "street":"8 Notre Dame St", "city":"BOSTON", "state":" MA", "zip":2119, "phone":"617-427-9801", "lat":42.31914, "lng":-71.09604},
  "113": { "name":"Family Shelter Project Hope", "street":"45 Magnolia St", "city":"DORCHESTER", "state":" MA", "zip":2125, "phone":"617 442 1880", "lat":42.31679, "lng":-71.07071},
  "114": { "name":"HOLY FAMILY SHELTER", "street":"1 Lingard St", "city":"DORCHESTER", "state":" MA", "zip":2125, "phone":"", "lat":42.31678, "lng":-71.070755},
  "115": { "name":"HOLY FAMILY Shelter", "street":"24 Hartford St", "city":"DORCHESTER", "state":" MA", "zip":2125, "phone":"617 445 8461", "lat":42.31687, "lng":-71.072914},
  "116": { "name":"PILGRIM CHURCH SHELTER", "street":"540 Columbia Rd", "city":"DORCHESTER", "state":" MA", "zip":2125, "phone":"617-282-0456", "lat":42.315563, "lng":-71.066696},
  "117": { "name":"CASA NUEVA VIDA", "street":"57 Jackson St", "city":"LAWRENCE", "state":" MA", "zip":1840, "phone":"617 524 0285", "lat":42.71053, "lng":-71.15787},
  "118": { "name":"Lifehouse Shelter", "street":"145 Stoughton St", "city":"DORCHESTER", "state":" MA", "zip":2125, "phone":"(617) 265-2605", "lat":42.315014, "lng":-71.06068},
  "119": { "name":"Saint Mary's Women and Infants Center Margaret's House", "street":"90 Cushing Ave", "city":"DORCHESTER", "state":" MA", "zip":2125, "phone":"617-436-8600", "lat":42.31359, "lng":-71.06297},
  "120": { "name":"Queen of Peace Family Shelter", "street":"401 Quincy St", "city":"BOSTON", "state":" MA", "zip":2125, "phone":"617 288 4182", "lat":42.310318, "lng":-71.067894},
  "121": { "name":"FAMILY HOUSE SHELTER", "street":"252 Columbia Rd", "city":"DORCHESTER", "state":" MA", "zip":2121, "phone":"617 427 4470", "lat":42.308086, "lng":-71.07549},
  "124": { "name":"Shattuck Shelter", "street":"170 Morton St", "city":"JAMAICA PLAIN", "state":" MA", "zip":2130, "phone":"617-983-0351", "lat":42.30019, "lng":-71.105995},
  "125": { "name":"CATHOLIC CHARITIES St. Ambrose Family Inn", "street":"25 Leonard St", "city":"DORCHESTER", "state":" MA", "zip":2122, "phone":"(617) 288-7675 ", "lat":42.301453, "lng":-71.05877},
  "126": { "name":"KIT CLARK SENIOR SERVICES", "street":"1500 Dorchester Ave", "city":"DORCHESTER", "state":" MA", "zip":2122, "phone":"617 825 5000", "lat":42.29953, "lng":-71.060356},
  "128": { "name":"BROOKVIEW HOUSE TRANSITIONAL HSNG PROGRAM", "street":"2 Brookview St", "city":"DORCHESTER", "state":" MA", "zip":2124, "phone":"617 265 2965", "lat":42.28854, "lng":-71.09022},
  "133": { "name":"New Horizons for New Hampshire - Angie's Shelter for Women", "street":"434 Union St", "city":"MANCHESTER", "state":" NH", "zip":3103, "phone":"603-668-8698", "lat":42.988216, "lng":-71.45743},
  "134": { "name":"Manchester Homeless Services Center", "street":"140 Central St", "city":"MANCHESTER", "state":" NH", "zip":3103, "phone":"603 232 0615 ", "lat":42.98805, "lng":-71.45917},
  "135": { "name":"New Horizons Shelter", "street":"199 Manchester St", "city":"MANCHESTER", "state":" NH", "zip":3103, "phone":"603-668-1877", "lat":42.990185, "lng":-71.45845},
  "136": { "name":"SOUTH MIDDLESEX OPPORTUNITY COUNCIL", "street":"300 Howard St", "city":"FRAMINGHAM", "state":" MA", "zip":1702, "phone":"508 620 2300", "lat":42.278458, "lng":-71.4115},
  "137": { "name":"PATHWAYS SHELTER", "street":"70 Pearl St", "city":"FRAMINGHAM", "state":" MA", "zip":1702, "phone":"508 879 5047", "lat":42.280266, "lng":-71.419846},
  "138": { "name":"TURNING POINT", "street":"75 Hollis St", "city":"FRAMINGHAM", "state":" MA", "zip":1702, "phone":"508 875 6429", "lat":42.274998, "lng":-71.417496},
  "140": { "name":"SHELTER HOPE AND DIGNITY OF WOMEN SEARCHING", "street":"25 Central St", "city":"ASHLAND", "state":" MA", "zip":1721, "phone":"508 231 8710", "lat":42.2579, "lng":-71.46135},
  "216": { "name":"Father Bill's Place", "street":"38 Broad St", "city":"QUINCY", "state":" MA", "zip":2169, "phone":"617 770 3314", "lat":42.25545, "lng":-70.99502},
  "224": { "name":"FAITH HOME SHARE", "street":"8 Driftway Rd", "city":"N WEYMOUTH", "state":" MA", "zip":2191, "phone":"781 340 1604", "lat":42.257103, "lng":-70.92833},
  "234": { "name":"MARLBORO SHELTER", "street":"57 Mechanic St", "city":"MARLBOROUGH", "state":" MA", "zip":1752, "phone":"508 460 6226", "lat":42.347355, "lng":-71.55493},
  "235": { "name":"MARY MARTHA", "street":"1045 Main St", "city":"HINGHAM", "state":" MA", "zip":2043, "phone":"781 749 5441", "lat":42.18666, "lng":-70.88321},
  "236": { "name":"MARY MARTHA CENTER", "street":"1045 Main St", "city":"HINGHAM", "state":" MA", "zip":2043, "phone":"781-749-5441", "lat":42.18666, "lng":-70.88321},
  "237": { "name":"MAIN SPRING HOUSE", "street":"54 N Main St", "city":"BROCKTON", "state":" MA", "zip":2301, "phone":"508 587 5441", "lat":42.08681, "lng":-71.019646},
  "238": { "name":"DAVID JON LOUISON FOUNDATION", "street":"137 Newbury St", "city":"BROCKTON", "state":" MA", "zip":2301, "phone":"508 584 4315", "lat":42.081863, "lng":-71.02643},
  "251": { "name":"YOUVILLE HOUSE", "street":"133 Granite St", "city":"WORCESTER", "state":" MA", "zip":1604, "phone":"508 753 3084", "lat":42.244064, "lng":-71.78448},
  "252": { "name":"Laura's Shelter House", "street":"41 Columbia St", "city":"WORCESTER", "state":" MA", "zip":1604, "phone":"7743291157", "lat":42.254795, "lng":-71.794586},
  "255": { "name":"CENTRAL MASS. MASS. DEPT. OF SOCIAL SERVICES", "street":"340 Main St", "city":"WORCESTER", "state":" MA", "zip":1608, "phone":"508 929 2130", "lat":42.265514, "lng":-71.80134},
  "256": { "name":"WORCESTER PUBLIC INEVRIATE PROGRAM", "street":"701 Main St", "city":"WORCESTER", "state":" MA", "zip":1610, "phone":"508 757 0103", "lat":42.25827, "lng":-71.80721},
  "258": { "name":"FRIENDLY HOUSE", "street":"87 Elm St", "city":"WORCESTER", "state":" MA", "zip":1609, "phone":"508 792 1799", "lat":42.265785, "lng":-71.81174},
  "259": { "name":"Woonsocket Homeless Shelter", "street":"176 Sayles St", "city":"WOONSOCKET", "state":" RI", "zip":2895, "phone":"401-767-0866", "lat":42.0009, "lng":-71.51995},
  "260": { "name":"Cambridge Street Housing - For Veterans", "street":"215 Cambridge St", "city":"WORCESTER", "state":" MA", "zip":1603, "phone":"508-363-1342", "lat":42.243607, "lng":-71.821304},
  "308": { "name":"FOCUS Family Resource Center", "street":"11 Peck St", "city":"ATTLEBORO", "state":" MA", "zip":2703, "phone":"508-226-5722", "lat":41.94749, "lng":-71.2868},
  "309": { "name":"FAMILY RESOURCE CENTER", "street":"11 Peck St", "city":"ATTLEBORO", "state":" MA", "zip":2703, "phone":"508 226 5722", "lat":41.94749, "lng":-71.2868},
  "310": { "name":"Attleboro Area Council of Churches", "street":"95 Pine St", "city":"ATTLEBORO", "state":" MA", "zip":2703, "phone":"(508) 222-2933", "lat":41.94068, "lng":-71.28135},
  "318": { "name":"Our Father's House", "street":"55 Lunenburg St", "city":"FITCHBURG", "state":" MA", "zip":1420, "phone":"978-345-3050", "lat":42.58311, "lng":-71.78852},
  "319": { "name":"SAMARITAN HOUSE", "street":"59 Ingell St", "city":"TAUNTON", "state":" MA", "zip":2780, "phone":"508-824-6497 ", "lat":41.892124, "lng":-71.08368},
  "326": { "name":"INTERIM HOUSE", "street":"49 Trenton St", "city":"PROVIDENCE", "state":" RI", "zip":2906, "phone":"401-831-4570", "lat":41.820957, "lng":-71.39151},
  "329": { "name":"PEOPLE TO END HOMELESSNESS", "street":"33 Chestnut Ave", "city":"PROVIDENCE", "state":" RI", "zip":2910, "phone":"401-274-0065", "lat":41.772625, "lng":-71.43866},
  "330": { "name":"CROSSROADS RHODE ISLAND", "street":"160 Broad St", "city":"PROVIDENCE", "state":" RI", "zip":2903, "phone":"401-521-2255", "lat":41.817314, "lng":-71.417015},
  "331": { "name":"SHELTER SERVICES", "street":"32 Tanner St", "city":"PROVIDENCE", "state":" RI", "zip":2907, "phone":"401-454-8827", "lat":41.81125, "lng":-71.41653},
  "332": { "name":"URBAN LEAGUE", "street":"246 Prairie Ave", "city":"PROVIDENCE", "state":" RI", "zip":2905, "phone":"401-351-5000", "lat":41.807735, "lng":-71.41573},
  "333": { "name":"AIDS CARE OCEAN STATE", "street":"557 Broad St", "city":"PROVIDENCE", "state":" RI", "zip":2907, "phone":"401-273-1888", "lat":41.808937, "lng":-71.4208},
  "335": { "name":"NICKERSON HOUSE GATEWAY TO INDEPENDENCE", "street":"133 Delaine St", "city":"PROVIDENCE", "state":" RI", "zip":2909, "phone":"401-351-2241", "lat":41.818813, "lng":-71.44334},
  "337": { "name":"Providence Rescue Mission", "street":"627 Cranston St", "city":"PROVIDENCE", "state":" RI", "zip":2907, "phone":"", "lat":41.806683, "lng":-71.43602},
  "338": { "name":"PROVIDENCE CENTER", "street":"127 Michigan Ave", "city":"PROVIDENCE", "state":" RI", "zip":2904, "phone":"401-276-4000", "lat":41.787487, "lng":-71.39266},
  "339": { "name":"MCAULEY VILLAGE MCAULEY CORP", "street":"325 Niagara St", "city":"PROVIDENCE", "state":" RI", "zip":2907, "phone":"401-467-3630", "lat":41.79385, "lng":-71.41556},
  "340": { "name":"Amos House", "street":"415 Friendship St", "city":"PROVIDENCE", "state":" RI", "zip":2907, "phone":"401-272-0220", "lat":41.81227, "lng":-71.41874},
  "344": { "name":"Rhode Island Family Shelter Inc.", "street":"165 Beach Ave", "city":"WARWICK", "state":" RI", "zip":2889, "phone":"401-739-8584", "lat":41.721863, "lng":-71.383934},
  "345": { "name":"SSTARBIRTH", "street":"80 East St", "city":"CRANSTON", "state":" RI", "zip":2920, "phone":"401-463-6001", "lat":41.73771, "lng":-71.46459},
  "347": { "name":"RI VETERAN'S HOME", "street":"480 Metacom Ave", "city":"BRISTOL", "state":" RI", "zip":2809, "phone":"401-253-8000", "lat":41.686047, "lng":-71.26177},
  "348": { "name":"FALL RIVER RESOURCE CENTER", "street":"177 Rockland St", "city":"FALL RIVER", "state":" MA", "zip":2724, "phone":"508 679 2109", "lat":41.691025, "lng":-71.16649},
  "351": { "name":"CONWAY HOUSE", "street":"14 E Grove St", "city":"MIDDLEBORO", "state":" MA", "zip":2346, "phone":"508 946 8505", "lat":41.885254, "lng":-70.91517},
  "352": { "name":"CROSSROADS", "street":"40 Navy Dr", "city":"NORTH KINGSTOWN", "state":" RI", "zip":2852, "phone":"401-294-7723", "lat":41.607246, "lng":-71.464615},
  "357": { "name":"House of Hope New Bedford", "street":"848 Mount Pleasant St", "city":"NEW BEDFORD", "state":" MA", "zip":2745, "phone":"508-996-6814", "lat":41.67351, "lng":-70.94469},
  "359": { "name":"Harbour House Family Shelter", "street":"713 Shawmut Ave", "city":"NEW BEDFORD", "state":" MA", "zip":2746, "phone":"508-992-6027", "lat":41.6533, "lng":-70.94395},
  "368": { "name":"Sister Rose's House", "street":"72 8th St", "city":"NEW BEDFORD", "state":" MA", "zip":2740, "phone":"(508) 997-3202", "lat":41.63418, "lng":-70.929565},
  "399": { "name":"ACCESS Emergency Shelter", "street":"51 Reynolds St", "city":"DANIELSON", "state":" CT", "zip":6239, "phone":"(860) 774-4977 ", "lat":41.807167, "lng":-71.87932},
  "401": { "name":"GARDNER COMMUNITY ACTION COMMITTEE", "street":"175 Connors St", "city":"GARDNER", "state":" MA", "zip":1440, "phone":"978 632 8700", "lat":42.572998, "lng":-71.996735},
  "455": { "name":"CAROLINA HILL SHELTER", "street":"728 Main St", "city":"MARSHFIELD", "state":" MA", "zip":2050, "phone":"781 837 1377", "lat":42.11413, "lng":-70.73331},
  "816": { "name":"Carriage House Shelter", "street":"294 Old Main Rd", "city":"N FALMOUTH", "state":" MA", "zip":2556, "phone":"508 564 6485", "lat":41.649822, "lng":-70.61667},
  "818": { "name":"Angel House Family Shelter", "street":"460 W Main St", "city":"HYANNIS", "state":" MA", "zip":2601, "phone":"508-775-8045", "lat":41.65007, "lng":-70.31316},
  "819": { "name":"TENANCY AND INDEPENDENCE PROGRAM", "street":"460 W Main St", "city":"HYANNIS", "state":" MA", "zip":2601, "phone":"508 771 5400", "lat":41.65007, "lng":-70.31316},
  "820": { "name":"SAFE HARBOR", "street":"7 Summerside Ln", "city":"HYANNIS", "state":" MA", "zip":2601, "phone":"508 790 2933", "lat":41.64576, "lng":-70.29225},
  "821": { "name":"Noah Shelter", "street":"77 Winter St", "city":"HYANNIS", "state":" MA", "zip":2601, "phone":"(508) 778-5255", "lat":41.653774, "lng":-70.28659},
  "822": { "name":"DAYSTAR PROGRAM", "street":"100 North St", "city":"HYANNIS", "state":" MA", "zip":2601, "phone":"508 775 0364", "lat":41.653084, "lng":-70.28638},
  "1792": { "name":"Tri-Town Shelter Services, Inc.", "street":"93 E Main St", "city":"VERNON", "state":" CT", "zip":6066, "phone":"860-875-9702", "lat":41.867943, "lng":-72.44463},
  "1794": { "name":"East Hartford Community Shelter", "street":"383 Main St", "city":"EAST HARTFORD", "state":" CT", "zip":6118, "phone":"(860) 568-0323", "lat":41.748283, "lng":-72.637375},
  "1795": { "name":"MACC Charities Shelter", "street":"466 Main St", "city":"MANCHESTER", "state":" CT", "zip":6040, "phone":"(860) 647-8003  ", "lat":41.777275, "lng":-72.52139},
  "1796": { "name":"House of Bread", "street":"1453 Main St", "city":"HARTFORD", "state":" CT", "zip":6120, "phone":"860-549-4188", "lat":41.774494, "lng":-72.67694},
  "2306": { "name":"LUCY'S HEARTH", "street":"909 W Main Rd", "city":"MIDDLETOWN", "state":" RI", "zip":2842, "phone":"401-847-2021", "lat":41.52705, "lng":-71.29664},
  "2752": { "name":"Bartons Crossing Emergency (BCAC)", "street":"1307 North St", "city":"PITTSFIELD", "state":" MA", "zip":1201, "phone":"413 442 1445", "lat":42.480515, "lng":-73.24606},
  "2753": { "name":"Turner House Living Center for Veterans", "street":"825 Simonds Rd", "city":"WILLIAMSTOWN", "state":" MA", "zip":1267, "phone":"(413)458-8234", "lat":42.734417, "lng":-73.20613},
  "2754": { "name":"Unity House of Troy Emergency Services", "street":"33 2nd St", "city":"TROY", "state":" NY", "zip":12180, "phone":"(518)274-2607", "lat":42.73049, "lng":-73.691734},
  "3137": { "name":"WINCHESTER EMERGENCY SHELTER", "street":"480 Main St", "city":"WINCHESTR CTR", "state":" CT", "zip":6098, "phone":"(860) 379-0708", "lat":41.877495, "lng":-72.976006}
}
